examples/verification2/Chain1_Time_Ordered_Access.csv

"Access","Start Time (UTCG)","Stop Time (UTCG)","Duration (sec)"
1,14 Oct 2025 12:27:53.664,14 Oct 2025 12:29:13.249,79.585
2,14 Oct 2025 12:29:41.792,14 Oct 2025 12:31:36.896,115.104
3,14 Oct 2025 13:11:51.788,14 Oct 2025 13:14:46.370,174.582
4,14 Oct 2025 13:12:03.826,14 Oct 2025 13:14:46.593,162.767
5,14 Oct 2025 13:12:04.989,14 Oct 2025 13:14:31.958,146.969
6,14 Oct 2025 13:13:22.056,14 Oct 2025 13:16:15.553,173.497
7,14 Oct 2025 13:13:44.956,14 Oct 2025 13:16:42.653,177.698
8,14 Oct 2025 13:13:50.821,14 Oct 2025 13:16:34.769,163.948
9,14 Oct 2025 13:23:42.401,14 Oct 2025 13:26:07.791,145.391
10,14 Oct 2025 13:31:02.548,14 Oct 2025 13:33:53.039,170.491
11,14 Oct 2025 13:55:01.067,14 Oct 2025 13:57:58.150,177.084
12,14 Oct 2025 14:02:05.349,14 Oct 2025 14:05:11.895,186.546
13,14 Oct 2025 14:09:44.774,14 Oct 2025 14:11:47.676,122.902
14,14 Oct 2025 14:34:21.142,14 Oct 2025 14:37:19.071,177.928
15,14 Oct 2025 14:42:11.049,14 Oct 2025 14:45:04.412,173.363
16,14 Oct 2025 14:46:44.852,14 Oct 2025 14:48:58.855,134.003
17,14 Oct 2025 14:47:10.520,14 Oct 2025 14:50:02.636,172.117
18,14 Oct 2025 14:47:47.828,14 Oct 2025 14:50:27.720,159.892
19,14 Oct 2025 14:48:07.378,14 Oct 2025 14:50:32.057,144.679
20,14 Oct 2025 14:48:48.574,14 Oct 2025 14:51:32.063,163.489
21,14 Oct 2025 14:49:20.179,14 Oct 2025 14:52:20.157,179.978
22,14 Oct 2025 14:49:27.757,14 Oct 2025 14:52:27.583,179.826
23,14 Oct 2025 15:16:30.608,14 Oct 2025 15:19:02.143,151.535
24,14 Oct 2025 15:37:38.502,14 Oct 2025 15:40:34.666,176.164
25,14 Oct 2025 16:21:45.539,14 Oct 2025 16:24:45.340,179.801
26,14 Oct 2025 16:22:42.204,14 Oct 2025 16:25:37.549,175.345
27,14 Oct 2025 16:24:04.994,14 Oct 2025 16:26:58.982,173.988
28,14 Oct 2025 16:24:16.099,14 Oct 2025 16:25:57.788,101.689
29,14 Oct 2025 16:24:42.572,14 Oct 2025 16:26:03.019,80.446
30,14 Oct 2025 16:24:50.795,14 Oct 2025 16:27:49.671,178.876
31,14 Oct 2025 16:25:04.494,14 Oct 2025 16:28:05.489,180.995
32,14 Oct 2025 16:59:44.670,14 Oct 2025 17:02:45.694,181.024
33,14 Oct 2025 17:13:01.097,14 Oct 2025 17:15:54.405,173.309
34,14 Oct 2025 17:18:01.678,14 Oct 2025 17:20:06.209,124.531
35,14 Oct 2025 17:47:42.188,14 Oct 2025 17:50:21.527,159.339
36,14 Oct 2025 17:59:34.917,14 Oct 2025 18:02:33.756,178.839
37,14 Oct 2025 18:00:02.516,14 Oct 2025 18:00:11.712,9.195
38,14 Oct 2025 18:00:22.850,14 Oct 2025 18:03:23.592,180.743
39,14 Oct 2025 18:00:43.263,14 Oct 2025 18:03:42.430,179.167
40,14 Oct 2025 18:08:23.516,14 Oct 2025 18:11:05.386,161.871
41,14 Oct 2025 18:23:26.458,14 Oct 2025 18:25:59.226,152.768
42,14 Oct 2025 18:31:47.277,14 Oct 2025 18:34:45.761,178.484
43,14 Oct 2025 18:35:56.616,14 Oct 2025 18:38:10.870,134.254
44,14 Oct 2025 18:44:08.909,14 Oct 2025 18:46:54.106,165.198
45,14 Oct 2025 18:48:20.245,14 Oct 2025 18:51:25.228,184.983
46,14 Oct 2025 18:53:16.282,14 Oct 2025 18:56:15.445,179.163
47,14 Oct 2025 19:29:56.706,14 Oct 2025 19:32:05.965,129.259
48,14 Oct 2025 19:36:00.738,14 Oct 2025 19:37:51.742,111.004
49,14 Oct 2025 19:36:18.593,14 Oct 2025 19:38:57.211,158.618
50,14 Oct 2025 19:36:39.707,14 Oct 2025 19:39:18.793,159.086
51,14 Oct 2025 19:55:46.206,14 Oct 2025 19:57:59.743,133.536
52,14 Oct 2025 20:09:40.768,14 Oct 2025 20:12:24.893,164.124
53,14 Oct 2025 20:21:22.187,14 Oct 2025 20:23:38.263,136.075
54,14 Oct 2025 20:24:04.555,14 Oct 2025 20:26:58.527,173.973
55,14 Oct 2025 20:41:34.702,14 Oct 2025 20:43:08.910,94.208
56,14 Oct 2025 21:13:37.624,14 Oct 2025 21:14:24.266,46.642
57,14 Oct 2025 21:33:57.630,14 Oct 2025 21:36:08.532,130.902
58,14 Oct 2025 21:53:16.983,14 Oct 2025 21:56:20.511,183.528
59,14 Oct 2025 21:57:09.957,14 Oct 2025 21:58:57.775,107.818
60,14 Oct 2025 22:11:03.563,14 Oct 2025 22:13:31.598,148.034
61,14 Oct 2025 22:26:59.108,14 Oct 2025 22:29:33.508,154.399
62,14 Oct 2025 22:42:52.559,14 Oct 2025 22:45:24.823,152.265
63,14 Oct 2025 23:31:18.534,14 Oct 2025 23:32:35.425,76.891
64,15 Oct 2025 00:16:02.233,15 Oct 2025 00:18:32.532,150.299
65,15 Oct 2025 00:58:02.896,15 Oct 2025 01:00:30.556,147.660
66,15 Oct 2025 01:13:22.853,15 Oct 2025 01:15:22.903,120.050
67,15 Oct 2025 01:24:25.226,15 Oct 2025 01:27:19.730,174.504
68,15 Oct 2025 02:33:29.176,15 Oct 2025 02:36:20.022,170.846
69,15 Oct 2025 02:48:11.305,15 Oct 2025 02:51:16.444,185.139
70,15 Oct 2025 02:56:30.438,15 Oct 2025 02:59:35.456,185.018
71,15 Oct 2025 03:34:54.546,15 Oct 2025 03:36:50.040,115.494
72,15 Oct 2025 03:42:46.874,15 Oct 2025 03:45:33.045,166.171
73,15 Oct 2025 04:33:37.718,15 Oct 2025 04:36:39.223,181.504
74,15 Oct 2025 04:42:36.613,15 Oct 2025 04:45:37.531,180.919
75,15 Oct 2025 05:10:54.365,15 Oct 2025 05:11:57.248,62.883
76,15 Oct 2025 05:18:19.562,15 Oct 2025 05:21:18.435,178.873
77,15 Oct 2025 05:23:20.500,15 Oct 2025 05:26:09.574,169.074
78,15 Oct 2025 05:31:15.637,15 Oct 2025 05:33:37.940,142.303
79,15 Oct 2025 05:32:07.356,15 Oct 2025 05:34:49.911,162.555
80,15 Oct 2025 06:19:25.046,15 Oct 2025 06:19:51.240,26.194
81,15 Oct 2025 06:31:42.755,15 Oct 2025 06:34:29.737,166.982
82,15 Oct 2025 06:34:59.193,15 Oct 2025 06:37:25.593,146.400
83,15 Oct 2025 06:53:51.439,15 Oct 2025 06:56:34.107,162.668
84,15 Oct 2025 06:57:48.569,15 Oct 2025 06:59:14.625,86.055
85,15 Oct 2025 07:07:37.879,15 Oct 2025 07:09:36.724,118.845
86,15 Oct 2025 07:26:39.040,15 Oct 2025 07:29:30.954,171.914
87,15 Oct 2025 07:33:43.899,15 Oct 2025 07:36:00.207,136.308
88,15 Oct 2025 07:55:57.532,15 Oct 2025 07:58:24.965,147.433
89,15 Oct 2025 08:29:09.607,15 Oct 2025 08:31:53.288,163.681
90,15 Oct 2025 08:31:30.867,15 Oct 2025 08:33:36.125,125.258
91,15 Oct 2025 08:31:32.855,15 Oct 2025 08:33:08.916,96.061
92,15 Oct 2025 08:32:22.876,15 Oct 2025 08:35:08.333,165.457
93,15 Oct 2025 08:32:49.636,15 Oct 2025 08:35:49.668,180.031
94,15 Oct 2025 09:24:01.114,15 Oct 2025 09:27:03.909,182.794
95,15 Oct 2025 09:32:52.675,15 Oct 2025 09:35:15.211,142.536
96,15 Oct 2025 10:04:26.163,15 Oct 2025 10:07:25.873,179.709
97,15 Oct 2025 10:07:06.377,15 Oct 2025 10:09:52.333,165.957
98,15 Oct 2025 10:07:07.998,15 Oct 2025 10:09:36.837,148.839
99,15 Oct 2025 10:07:55.125,15 Oct 2025 10:10:52.142,177.017
100,15 Oct 2025 10:08:43.094,15 Oct 2025 10:10:31.799,108.705
101,15 Oct 2025 10:09:05.929,15 Oct 2025 10:11:11.455,125.526
102,15 Oct 2025 10:15:53.982,15 Oct 2025 10:15:54.210,0.228
103,15 Oct 2025 10:30:15.374,15 Oct 2025 10:32:33.873,138.499
104,15 Oct 2025 10:50:30.919,15 Oct 2025 10:53:02.817,151.898
105,15 Oct 2025 11:00:36.341,15 Oct 2025 11:03:08.034,151.694
106,15 Oct 2025 11:04:00.147,15 Oct 2025 11:06:45.562,165.414
107,15 Oct 2025 11:40:15.444,15 Oct 2025 11:42:57.630,162.186
108,15 Oct 2025 11:42:48.448,15 Oct 2025 11:45:44.105,175.657
109,15 Oct 2025 11:42:54.260,15 Oct 2025 11:45:37.928,163.668
110,15 Oct 2025 11:43:28.631,15 Oct 2025 11:45:59.853,151.222
111,15 Oct 2025 11:44:28.301,15 Oct 2025 11:47:28.285,179.984
112,15 Oct 2025 11:44:56.515,15 Oct 2025 11:47:14.870,138.355
113,15 Oct 2025 11:45:10.543,15 Oct 2025 11:46:42.988,92.445
114,15 Oct 2025 11:50:47.053,15 Oct 2025 11:53:40.470,173.417
115,15 Oct 2025 12:22:04.382,15 Oct 2025 12:24:48.388,164.006
116,15 Oct 2025 12:22:30.934,15 Oct 2025 12:25:33.424,182.490
117,15 Oct 2025 12:26:05.737,15 Oct 2025 12:27:53.664,107.927
118,15 Oct 2025 12:27:09.336,15 Oct 2025 12:27:53.664,44.328


